{"cantidad":24,"total":24,"inicio":0,"parametros":{},"provincias":[{"id":"02","nombre":"Ciudad Autónoma de Buenos Aires","nombre_completo":"Ciudad Autónoma de Buenos Aires","fuente":"IGN","categoria":"Ciudad Autónoma","centroide":{"lon":-58.445876325,"lat":-34.614442065},"iso_id":"AR-C","iso_nombre":"Ciudad Autónoma de Buenos Aires"},{"id":"58","nombre":"Neuquén","nombre_completo":"Provincia del Neuquén","fuente":"IGN","categoria":"Provincia","centroide":{"lon":-70.119897224,"lat":-38.641982863},"iso_id":"AR-Q","iso_nombre":"Neuquén"},{"id":"74","nombre":"San Luis","nombre_completo":"Provincia de San Luis","fuente":"IGN","categoria":"Provincia","centroide":{"lon":-66.025231271,"lat":-33.761103538},"iso_id":"AR-D","iso_nombre":"San Luis"},{"id":"82","nombre":"Santa Fe","nombre_completo":"Provincia de Santa Fe","fuente":"IGN","categoria":"Provincia","centroide":{"lon":-60.950687277,"lat":-30.708822709},"iso_id":"AR-S","iso_nombre":"Santa Fe"},{"id":"46","nombre":"La Rioja","nombre_completo":"Provincia de La Rioja","fuente":"IGN","categoria":"Provincia","centroide":{"lon":-67.181757581,"lat":-29.684937278},"iso_id":"AR-F","iso_nombre":"La Rioja"},{"id":"10","nombre":"Catamarca","nombre_completo":"Provincia de Catamarca","fuente":"IGN","categoria":"Provincia","centroide":{"lon":-66.947897245,"lat":-27.335953796},"iso_id":"AR-K","iso_nombre":"Catamarca"},{"id":"90","nombre":"Tucumán","nombre_completo":"Provincia de Tucumán","fuente":"IGN","categoria":"Provincia","centroide":{"lon":-65.36476558,"lat":-26.948283502},"iso_id":"AR-T","iso_nombre":"Tucumán"},{"id":"22","nombre":"Chaco","nombre_completo":"Provincia del Chaco","fuente":"IGN","categoria":"Provincia","centroide":{"lon":-60.76511626,"lat":-26.386987184},"iso_id":"AR-H","iso_nombre":"Chaco"},{"id":"34","nombre":"Formosa","nombre_completo":"Provincia de Formosa","fuente":"IGN","categoria":"Provincia","centroide":{"lon":-59.932190112,"lat":-24.895087176},"iso_id":"AR-P","iso_nombre":"Formosa"},{"id":"78","nombre":"Santa Cruz","nombre_completo":"Provincia de Santa Cruz","fuente":"IGN","categoria":"Provincia","centroide":{"lon":-69.955761914,"lat":-48.815547183},"iso_id":"AR-Z","iso_nombre":"Santa Cruz"},{"id":"26","nombre":"Chubut","nombre_completo":"Provincia del Chubut","fuente":"IGN","categoria":"Provincia","centroide":{"lon":-68.526736334,"lat":-43.788627139},"iso_id":"AR-U","iso_nombre":"Chubut"},{"id":"50","nombre":"Mendoza","nombre_completo":"Provincia de Mendoza","fuente":"IGN","categoria":"Provincia","centroide":{"lon":-68.582945602,"lat":-34.630388707},"iso_id":"AR-M","iso_nombre":"Mendoza"},{"id":"30","nombre":"Entre Ríos","nombre_completo":"Provincia de Entre Ríos","fuente":"IGN","categoria":"Provincia","centroide":{"lon":-59.201262616,"lat":-32.058927894},"iso_id":"AR-E","iso_nombre":"Entre Ríos"},{"id":"70","nombre":"San Juan","nombre_completo":"Provincia de San Juan","fuente":"IGN","categoria":"Provincia","centroide":{"lon":-68.888159707,"lat":-30.865660702},"iso_id":"AR-J","iso_nombre":"San Juan"},{"id":"38","nombre":"Jujuy","nombre_completo":"Provincia de Jujuy","fuente":"IGN","categoria":"Provincia","centroide":{"lon":-65.764423919,"lat":-23.319975062},"iso_id":"AR-Y","iso_nombre":"Jujuy"},{"id":"86","nombre":"Santiago del Estero","nombre_completo":"Provincia de Santiago del Estero","fuente":"IGN","categoria":"Provincia","centroide":{"lon":-63.252626886,"lat":-27.783431882},"iso_id":"AR-G","iso_nombre":"Santiago del Estero"},{"id":"62","nombre":"Río Negro","nombre_completo":"Provincia de Río Negro","fuente":"IGN","categoria":"Provincia","centroide":{"lon":-67.2296758,"lat":-40.405079631},"iso_id":"AR-R","iso_nombre":"Río Negro"},{"id":"18","nombre":"Corrientes","nombre_completo":"Provincia de Corrientes","fuente":"IGN","categoria":"Provincia","centroide":{"lon":-57.80108186,"lat":-28.774204481},"iso_id":"AR-W","iso_nombre":"Corrientes"},{"id":"54","nombre":"Misiones","nombre_completo":"Provincia de Misiones","fuente":"IGN","categoria":"Provincia","centroide":{"lon":-54.651570563,"lat":-26.875302599},"iso_id":"AR-N","iso_nombre":"Misiones"},{"id":"66","nombre":"Salta","nombre_completo":"Provincia de Salta","fuente":"IGN","categoria":"Provincia","centroide":{"lon":-64.814158657,"lat":-24.299283896},"iso_id":"AR-A","iso_nombre":"Salta"},{"id":"14","nombre":"Córdoba","nombre_completo":"Provincia de Córdoba","fuente":"IGN","categoria":"Provincia","centroide":{"lon":-63.801973467,"lat":-32.144799387},"iso_id":"AR-X","iso_nombre":"Córdoba"},{"id":"06","nombre":"Buenos Aires","nombre_completo":"Provincia de Buenos Aires","fuente":"IGN","categoria":"Provincia","centroide":{"lon":-60.558477108,"lat":-36.677392076},"iso_id":"AR-B","iso_nombre":"Buenos Aires"},{"id":"42","nombre":"La Pampa","nombre_completo":"Provincia de La Pampa","fuente":"IGN","categoria":"Provincia","centroide":{"lon":-65.447643999,"lat":-37.135065221},"iso_id":"AR-L","iso_nombre":"La Pampa"},{"id":"94","nombre":"Tierra del Fuego, Antártida e Islas del Atlántico Sur","nombre_completo":"Provincia de Tierra del Fuego, Antártida e Islas del Atlántico Sur","fuente":"IGN","categoria":"Provincia","centroide":{"lon":-50.742860676,"lat":-82.521134521},"iso_id":"AR-V","iso_nombre":"Tierra del Fuego"}]}